[
    {
        "name": "World",
        "center": {
            "lng": "0",
            "lat": "0"
        },
        "zoom": 1.58,
        "bounds": [[-180, 60], [180, 60], [180, -60], [-180, -60]],
        "symbol": "WORLD"
    },
    {
        "name": "North Indian",
        "center": {
            "lng": "65.2235",
            "lat": "28.2211"
        },
        "zoom": 2.82,
        "bounds": [[30, 60], [110, 60], [110, 0], [30, 0]],
        "symbol": "NI"
    },
    {
        "name": "South Indian",
        "center": {
            "lng": "71.7647",
            "lat": "-24.6092"
        },
        "zoom": 2.85,
        "bounds": [[18, 0], [144, 0], [144, -45], [18, -45]],
        "symbol": "SI"
    },
    {
        "name": "Eastern Pacific",
        "center": {
            "lng": "-142.5974",
            "lat": "28.6582"
        },
        "zoom": 2.84,
        "bounds": [[-180, 60], [-75, 60], [-75, 0], [-180, 0]],
        "symbol": "EP"
    },
    {
        "name": "Western Pacific",
        "center": {
            "lng": "147.7372",
            "lat": "28.7025"
        },
        "zoom": 2.83,
        "bounds": [[98, 60], [200, 60], [200, 0], [98, 0]],
        "symbol": "WP"
    },
    {
        "name": "South Pacific",
        "center": {
            "lng": "-171.9334",
            "lat": "-26.5763"
        },
        "zoom": 2.84,
        "bounds": [[135, 0], [260, 0], [260, -45], [135, -45]],
        "symbol": "SP"
    },
    {
        "name": "North Atlantic",
        "center": {
            "lng": "-65.3281",
            "lat": "28.9208"
        },
        "zoom": 2.71,
        "bounds": [[-125, 60], [16, 60], [16, 0], [-125, 0]],
        "symbol": "NA"
    },
    {
        "name": "South Atlantic",
        "center": {
            "lng": "-29.9435",
            "lat": "-23.4996"
        },
        "zoom": 3.24,
        "bounds": [[-70, 0], [25, 0], [25, -45], [-70, -45]],
        "symbol": "SA"
    }
]