[
    {
        "name": "World",
        "center": {
            "lng": "0.40",
            "lat": "0.05"
        },
        "zoom": 1.58,
        "bounds": [[-182.921, 62.5], [182.921, 62.5], [182.921, -62.5], [-182.921, -62.5]],
        "symbol": "WORLD"
    },
    {
        "name": "North Indian",
        "center": {
            "lng": "65.2235",
            "lat": "28.2211"
        },
        "zoom": 2.85,
        "bounds": [[30, 60], [100, 60], [100, 0], [30, 0]],
        "symbol": "NI"
    },
    {
        "name": "South Indian",
        "center": {
            "lng": "72.9150",
            "lat": "-24.2865"
        },
        "zoom": 2.69,
        "bounds": [[10, 0], [135, 0], [135, -60], [10, -60]],
        "symbol": "SI"
    },
    {
        "name": "Eastern Pacific",
        "center": {
            "lng": "-113.6709",
            "lat": "22.8231"
        },
        "zoom": 2.63,
        "bounds": [[-180, 60], [-75, 60], [-75, 0], [-180, 0]],
        "symbol": "EP"
    },
    {
        "name": "Western Pacific",
        "center": {
            "lng": "120.7134",
            "lat": "27.4097"
        },
        "zoom": 2.82,
        "bounds": [[100, 60], [180, 60], [180, 0], [100, 0]],
        "symbol": "WP"
    },
    {
        "name": "South Pacific",
        "center": {
            "lng": "-149.3299",
            "lat": "-14.9330"
        },
        "zoom": 2.35,
        "bounds": [[135, 0], [290, 0], [290, -60], [135, -60]],
        "symbol": "SP"
    },
    {
        "name": "North Atlantic",
        "center": {
            "lng": "-43.2255",
            "lat": "12.8965"
        },
        "zoom": 2.28,
        "bounds": [[-125, 60], [30, 60], [30, 0], [-125, 0]],
        "symbol": "NA"
    },
    {
        "name": "South Atlantic",
        "center": {
            "lng": "-23.5203",
            "lat": "-28.2213"
        },
        "zoom": 2.86,
        "bounds": [[-70, 0], [10, 0], [10, -60], [-70, -60]],
        "symbol": "SA"
    }
]